{
"type": "FeatureCollection",
"crs": { "type": "name", "properties": { "name": "urn:ogc:def:crs:OGC:1.3:CRS84" } },
                                                                                
"features": [
{ "type": "Feature", "properties": { "id": 1.0, "osm_id": 26145758.0, "name": "Harrisburg", "type": "city", "z_order": 7.0, "population": 49528.0 }, "geometry": { "type": "Point", "coordinates": [ -76.886112227954129, 40.266310680403734 ] } },
{ "type": "Feature", "properties": { "id": 2.0, "osm_id": 25716549.0, "name": "Mechanicsburg", "type": "village", "z_order": 5.0, "population": null }, "geometry": { "type": "Point", "coordinates": [ -77.004727641066722, 40.210197191418303 ] } },
{ "type": "Feature", "properties": { "id": 3.0, "osm_id": 29992370.0, "name": "Marysville", "type": "village", "z_order": 5.0, "population": null }, "geometry": { "type": "Point", "coordinates": [ -76.932751232687366, 40.339091919125785 ] } },
{ "type": "Feature", "properties": { "id": 4.0, "osm_id": 30139722.0, "name": "Summerdale", "type": "hamlet", "z_order": 4.0, "population": null }, "geometry": { "type": "Point", "coordinates": [ -76.93514451750049, 40.308068567642891 ] } },
{ "type": "Feature", "properties": { "id": 5.0, "osm_id": 43416539.0, "name": "Shiremanstown", "type": "hamlet", "z_order": 4.0, "population": null }, "geometry": { "type": "Point", "coordinates": [ -76.955632738703656, 40.221163654435372 ] } },
{ "type": "Feature", "properties": { "id": 6.0, "osm_id": 111768824.0, "name": "Dillsburg Junction", "type": "locality", "z_order": 1.0, "population": null }, "geometry": { "type": "Point", "coordinates": [ -77.023900071109693, 40.212883926661561 ] } },
{ "type": "Feature", "properties": { "id": 7.0, "osm_id": 157552166.0, "name": "Mountain View Acres", "type": "hamlet", "z_order": 4.0, "population": null }, "geometry": { "type": "Point", "coordinates": [ -76.800526626306151, 40.361754657469248 ] } },
{ "type": "Feature", "properties": { "id": 8.0, "osm_id": 157544494.0, "name": "Sunset Manor", "type": "hamlet", "z_order": 4.0, "population": null }, "geometry": { "type": "Point", "coordinates": [ -76.823027342461259, 40.339532555775634 ] } },
{ "type": "Feature", "properties": { "id": 9.0, "osm_id": 157556433.0, "name": "Sunnyland", "type": "hamlet", "z_order": 4.0, "population": null }, "geometry": { "type": "Point", "coordinates": [ -77.011365605465954, 40.20286788764534 ] } },
{ "type": "Feature", "properties": { "id": 10.0, "osm_id": 157556416.0, "name": "Sherwood Park", "type": "hamlet", "z_order": 4.0, "population": null }, "geometry": { "type": "Point", "coordinates": [ -76.957928458163835, 40.284826891247235 ] } },
{ "type": "Feature", "properties": { "id": 11.0, "osm_id": 157556444.0, "name": "Branbury Cross", "type": "hamlet", "z_order": 4.0, "population": null }, "geometry": { "type": "Point", "coordinates": [ -76.720525216190424, 40.307867234328654 ] } },
{ "type": "Feature", "properties": { "id": 12.0, "osm_id": 157560150.0, "name": "Mountain View Estates", "type": "hamlet", "z_order": 4.0, "population": null }, "geometry": { "type": "Point", "coordinates": [ -76.948030603982374, 40.303421472885418 ] } },
{ "type": "Feature", "properties": { "id": 13.0, "osm_id": 157559582.0, "name": "Pine Acres", "type": "hamlet", "z_order": 4.0, "population": null }, "geometry": { "type": "Point", "coordinates": [ -76.733858561025627, 40.335088889808191 ] } },
{ "type": "Feature", "properties": { "id": 14.0, "osm_id": 157566208.0, "name": "Rockford Heights", "type": "hamlet", "z_order": 4.0, "population": null }, "geometry": { "type": "Point", "coordinates": [ -76.769030032570072, 40.334907170147375 ] } },
{ "type": "Feature", "properties": { "id": 15.0, "osm_id": 157567183.0, "name": "Poplar Gardens", "type": "hamlet", "z_order": 4.0, "population": null }, "geometry": { "type": "Point", "coordinates": [ -76.804693857106926, 40.292589120319121 ] } },
{ "type": "Feature", "properties": { "id": 16.0, "osm_id": 157568980.0, "name": "Treemont", "type": "hamlet", "z_order": 4.0, "population": null }, "geometry": { "type": "Point", "coordinates": [ -76.953586380862873, 40.297866031281046 ] } },
{ "type": "Feature", "properties": { "id": 17.0, "osm_id": 157568475.0, "name": "Glenvale", "type": "hamlet", "z_order": 4.0, "population": null }, "geometry": { "type": "Point", "coordinates": [ -76.99914328189638, 40.326198540388162 ] } },
{ "type": "Feature", "properties": { "id": 18.0, "osm_id": 157572692.0, "name": "Westfield Terrace", "type": "hamlet", "z_order": 4.0, "population": null }, "geometry": { "type": "Point", "coordinates": [ -76.865528453054822, 40.210646293790347 ] } },
{ "type": "Feature", "properties": { "id": 19.0, "osm_id": 157562081.0, "name": "Ridgeview", "type": "hamlet", "z_order": 4.0, "population": null }, "geometry": { "type": "Point", "coordinates": [ -76.81219390024755, 40.309810997674589 ] } },
{ "type": "Feature", "properties": { "id": 20.0, "osm_id": 157580111.0, "name": "Long Lane Acres", "type": "hamlet", "z_order": 4.0, "population": null }, "geometry": { "type": "Point", "coordinates": [ -76.716358572122857, 40.310089444498026 ] } },
{ "type": "Feature", "properties": { "id": 21.0, "osm_id": 157565418.0, "name": "Belmont Acres", "type": "hamlet", "z_order": 4.0, "population": null }, "geometry": { "type": "Point", "coordinates": [ -76.800526877763247, 40.326755266396958 ] } },
{ "type": "Feature", "properties": { "id": 22.0, "osm_id": 157578583.0, "name": "West Enola", "type": "hamlet", "z_order": 4.0, "population": null }, "geometry": { "type": "Point", "coordinates": [ -76.941363805836204, 40.286755231891334 ] } },
{ "type": "Feature", "properties": { "id": 23.0, "osm_id": 157570708.0, "name": "Enhaut", "type": "neighbourhood", "z_order": 2.0, "population": null }, "geometry": { "type": "Point", "coordinates": [ -76.826916545533763, 40.23175695512316 ] } },
{ "type": "Feature", "properties": { "id": 24.0, "osm_id": 157586919.0, "name": "West Fairview", "type": "hamlet", "z_order": 4.0, "population": null }, "geometry": { "type": "Point", "coordinates": [ -76.915529774427071, 40.27508887995927 ] } },
{ "type": "Feature", "properties": { "id": 25.0, "osm_id": 157588997.0, "name": "Drexel Hills", "type": "hamlet", "z_order": 4.0, "population": null }, "geometry": { "type": "Point", "coordinates": [ -76.881639979696885, 40.225923485790531 ] } },
{ "type": "Feature", "properties": { "id": 26.0, "osm_id": 157574004.0, "name": "Devonshire Crest", "type": "hamlet", "z_order": 4.0, "population": null }, "geometry": { "type": "Point", "coordinates": [ -76.743025513250373, 40.312866955752639 ] } },
{ "type": "Feature", "properties": { "id": 27.0, "osm_id": 157576804.0, "name": "Colonial Terrace", "type": "hamlet", "z_order": 4.0, "population": null }, "geometry": { "type": "Point", "coordinates": [ -76.80636034709589, 40.341754933583047 ] } },
{ "type": "Feature", "properties": { "id": 28.0, "osm_id": 157586182.0, "name": "Fort Hunter", "type": "hamlet", "z_order": 4.0, "population": null }, "geometry": { "type": "Point", "coordinates": [ -76.909854471607318, 40.344597572225325 ] } },
{ "type": "Feature", "properties": { "id": 29.0, "osm_id": 157596285.0, "name": "Manor Acres", "type": "hamlet", "z_order": 4.0, "population": null }, "geometry": { "type": "Point", "coordinates": [ -76.723024951173855, 40.340922191502756 ] } },
{ "type": "Feature", "properties": { "id": 30.0, "osm_id": 157593517.0, "name": "Mount Allen Estates", "type": "hamlet", "z_order": 4.0, "population": null }, "geometry": { "type": "Point", "coordinates": [ -76.978864859729683, 40.185090793023647 ] } },
{ "type": "Feature", "properties": { "id": 31.0, "osm_id": 157583756.0, "name": "Lower Allen", "type": "village", "z_order": 5.0, "population": 17666.0 }, "geometry": { "type": "Point", "coordinates": [ -76.900531783621602, 40.226480966170584 ] } },
{ "type": "Feature", "properties": { "id": 32.0, "osm_id": 157598965.0, "name": "Rossmoyne", "type": "hamlet", "z_order": 4.0, "population": null }, "geometry": { "type": "Point", "coordinates": [ -76.94386387609579, 40.197312865136126 ] } },
{ "type": "Feature", "properties": { "id": 33.0, "osm_id": 157598274.0, "name": "Fair Acres", "type": "hamlet", "z_order": 4.0, "population": null }, "geometry": { "type": "Point", "coordinates": [ -76.89219572945845, 40.187868974830508 ] } },
{ "type": "Feature", "properties": { "id": 34.0, "osm_id": 157591991.0, "name": "Willow Farms Mobile Home Park", "type": "neighbourhood", "z_order": 2.0, "population": null }, "geometry": { "type": "Point", "coordinates": [ -76.775373037796612, 40.245612157249951 ] } },
{ "type": "Feature", "properties": { "id": 35.0, "osm_id": 157598935.0, "name": "Centennial Acres", "type": "hamlet", "z_order": 4.0, "population": null }, "geometry": { "type": "Point", "coordinates": [ -76.824694167726349, 40.348421396453055 ] } },
{ "type": "Feature", "properties": { "id": 36.0, "osm_id": 157610711.0, "name": "Swatara Crest", "type": "hamlet", "z_order": 4.0, "population": null }, "geometry": { "type": "Point", "coordinates": [ -76.785136278613138, 40.245792368168196 ] } },
{ "type": "Feature", "properties": { "id": 37.0, "osm_id": 157620659.0, "name": "Springville", "type": "hamlet", "z_order": 4.0, "population": null }, "geometry": { "type": "Point", "coordinates": [ -76.866361614230271, 40.183424722129836 ] } },
{ "type": "Feature", "properties": { "id": 38.0, "osm_id": 157611284.0, "name": "Little Hollywood Mobile Home Park", "type": "neighbourhood", "z_order": 2.0, "population": null }, "geometry": { "type": "Point", "coordinates": [ -76.781391914827466, 40.233501145354552 ] } },
{ "type": "Feature", "properties": { "id": 39.0, "osm_id": 157623901.0, "name": "Spring Valley", "type": "hamlet", "z_order": 4.0, "population": null }, "geometry": { "type": "Point", "coordinates": [ -76.823861006550899, 40.285089160997529 ] } },
{ "type": "Feature", "properties": { "id": 40.0, "osm_id": 157606831.0, "name": "Colonial Park", "type": "town", "z_order": 6.0, "population": 13229.0 }, "geometry": { "type": "Point", "coordinates": [ -76.809693829987992, 40.300644548364026 ] } },
{ "type": "Feature", "properties": { "id": 41.0, "osm_id": 157625490.0, "name": "Bloomburg Village", "type": "hamlet", "z_order": 4.0, "population": null }, "geometry": { "type": "Point", "coordinates": [ -76.814694054326154, 40.30008899582171 ] } },
{ "type": "Feature", "properties": { "id": 42.0, "osm_id": 157627977.0, "name": "Frogtown", "type": "hamlet", "z_order": 4.0, "population": null }, "geometry": { "type": "Point", "coordinates": [ -76.858028074638042, 40.181480455869711 ] } },
{ "type": "Feature", "properties": { "id": 43.0, "osm_id": 157627998.0, "name": "Lemoyne", "type": "village", "z_order": 5.0, "population": 3968.0 }, "geometry": { "type": "Point", "coordinates": [ -76.894140330994702, 40.241200761609718 ] } },
{ "type": "Feature", "properties": { "id": 44.0, "osm_id": 157634871.0, "name": "Holmstead Manor", "type": "hamlet", "z_order": 4.0, "population": null }, "geometry": { "type": "Point", "coordinates": [ -76.821916321195616, 40.311755347753746 ] } },
{ "type": "Feature", "properties": { "id": 45.0, "osm_id": 157638877.0, "name": "Colonial Hills", "type": "hamlet", "z_order": 4.0, "population": null }, "geometry": { "type": "Point", "coordinates": [ -76.823027426280291, 40.326755182577919 ] } },
{ "type": "Feature", "properties": { "id": 46.0, "osm_id": 157638277.0, "name": "Manadahill", "type": "hamlet", "z_order": 4.0, "population": null }, "geometry": { "type": "Point", "coordinates": [ -76.714691411581654, 40.352310934801721 ] } },
{ "type": "Feature", "properties": { "id": 47.0, "osm_id": 157641206.0, "name": "Colonial Crest", "type": "hamlet", "z_order": 4.0, "population": null }, "geometry": { "type": "Point", "coordinates": [ -76.82802756679942, 40.326755098758895 ] } },
{ "type": "Feature", "properties": { "id": 48.0, "osm_id": 157639553.0, "name": "Cherry Hill", "type": "hamlet", "z_order": 4.0, "population": null }, "geometry": { "type": "Point", "coordinates": [ -76.862750606524088, 40.20675742599397 ] } },
{ "type": "Feature", "properties": { "id": 49.0, "osm_id": 157640765.0, "name": "Freys Grove", "type": "neighbourhood", "z_order": 2.0, "population": null }, "geometry": { "type": "Point", "coordinates": [ -76.723580838992305, 40.215646937223674 ] } },
{ "type": "Feature", "properties": { "id": 50.0, "osm_id": 157643920.0, "name": "Mountain View", "type": "hamlet", "z_order": 4.0, "population": null }, "geometry": { "type": "Point", "coordinates": [ -76.777192832794626, 40.330644134193335 ] } },
{ "type": "Feature", "properties": { "id": 51.0, "osm_id": 157643930.0, "name": "Hanover Hills", "type": "hamlet", "z_order": 4.0, "population": null }, "geometry": { "type": "Point", "coordinates": [ -76.730247804776539, 40.29258953941428 ] } },
{ "type": "Feature", "properties": { "id": 52.0, "osm_id": 157641966.0, "name": "Hassler Meadows", "type": "hamlet", "z_order": 4.0, "population": null }, "geometry": { "type": "Point", "coordinates": [ -76.821360936291327, 40.276755956681455 ] } },
{ "type": "Feature", "properties": { "id": 53.0, "osm_id": 158227327.0, "name": "Hanover Heights", "type": "hamlet", "z_order": 4.0, "population": null }, "geometry": { "type": "Point", "coordinates": [ -76.750525472571965, 40.333421980724061 ] } },
{ "type": "Feature", "properties": { "id": 54.0, "osm_id": 158230156.0, "name": "Hustons Mill", "type": "hamlet", "z_order": 4.0, "population": null }, "geometry": { "type": "Point", "coordinates": [ -77.037477161689182, 40.255366261792005 ] } },
{ "type": "Feature", "properties": { "id": 55.0, "osm_id": 158236286.0, "name": "Timber Ridge", "type": "hamlet", "z_order": 4.0, "population": null }, "geometry": { "type": "Point", "coordinates": [ -76.885528931312294, 40.205646237090264 ] } },
{ "type": "Feature", "properties": { "id": 56.0, "osm_id": 158237315.0, "name": "Knob Point", "type": "hamlet", "z_order": 4.0, "population": null }, "geometry": { "type": "Point", "coordinates": [ -76.93719691031157, 40.258422387508091 ] } },
{ "type": "Feature", "properties": { "id": 57.0, "osm_id": 158237330.0, "name": "Vaughn", "type": "hamlet", "z_order": 4.0, "population": null }, "geometry": { "type": "Point", "coordinates": [ -76.784581731899181, 40.321781528872833 ] } },
{ "type": "Feature", "properties": { "id": 58.0, "osm_id": 158240031.0, "name": "Cedar Cliff", "type": "hamlet", "z_order": 4.0, "population": null }, "geometry": { "type": "Point", "coordinates": [ -76.902751646858079, 40.228423220773976 ] } },
{ "type": "Feature", "properties": { "id": 59.0, "osm_id": 158241343.0, "name": "Lakeview Heights", "type": "hamlet", "z_order": 4.0, "population": null }, "geometry": { "type": "Point", "coordinates": [ -76.810527326439569, 40.280922516929991 ] } },
{ "type": "Feature", "properties": { "id": 60.0, "osm_id": 158265214.0, "name": "Clifton", "type": "neighbourhood", "z_order": 2.0, "population": null }, "geometry": { "type": "Point", "coordinates": [ -76.724136642991752, 40.228979862963712 ] } },
{ "type": "Feature", "properties": { "id": 61.0, "osm_id": 158255695.0, "name": "White Hill", "type": "hamlet", "z_order": 4.0, "population": null }, "geometry": { "type": "Point", "coordinates": [ -76.920529831127169, 40.230367654672165 ] } },
{ "type": "Feature", "properties": { "id": 62.0, "osm_id": 158262905.0, "name": "Chartwood", "type": "hamlet", "z_order": 4.0, "population": null }, "geometry": { "type": "Point", "coordinates": [ -76.788693725958041, 40.26560148757622 ] } },
{ "type": "Feature", "properties": { "id": 63.0, "osm_id": 158281394.0, "name": "Remeos Mobile Home Park", "type": "hamlet", "z_order": 4.0, "population": null }, "geometry": { "type": "Point", "coordinates": [ -76.864972900512484, 40.212035091327181 ] } },
{ "type": "Feature", "properties": { "id": 64.0, "osm_id": 158281949.0, "name": "Windsor Manor", "type": "hamlet", "z_order": 4.0, "population": null }, "geometry": { "type": "Point", "coordinates": [ -76.781359812138305, 40.309255696589354 ] } },
{ "type": "Feature", "properties": { "id": 65.0, "osm_id": 158284948.0, "name": "Springford Village", "type": "hamlet", "z_order": 4.0, "population": null }, "geometry": { "type": "Point", "coordinates": [ -76.772193027551609, 40.2917559591437 ] } },
{ "type": "Feature", "properties": { "id": 66.0, "osm_id": 158285900.0, "name": "Club Estates", "type": "hamlet", "z_order": 4.0, "population": null }, "geometry": { "type": "Point", "coordinates": [ -76.845528058616367, 40.330088246374856 ] } },
{ "type": "Feature", "properties": { "id": 67.0, "osm_id": 158268626.0, "name": "Pleasant Hills", "type": "hamlet", "z_order": 4.0, "population": null }, "geometry": { "type": "Point", "coordinates": [ -76.807193759728435, 40.319533083346521 ] } },
{ "type": "Feature", "properties": { "id": 68.0, "osm_id": 158287454.0, "name": "Wormleysburg", "type": "village", "z_order": 5.0, "population": 2647.0 }, "geometry": { "type": "Point", "coordinates": [ -76.913863032980998, 40.262866891665844 ] } },
{ "type": "Feature", "properties": { "id": 69.0, "osm_id": 158314791.0, "name": "Paxtang Manor", "type": "hamlet", "z_order": 4.0, "population": null }, "geometry": { "type": "Point", "coordinates": [ -76.831361217329587, 40.270089326173377 ] } },
{ "type": "Feature", "properties": { "id": 70.0, "osm_id": 158292391.0, "name": "Colonial Estates", "type": "hamlet", "z_order": 4.0, "population": null }, "geometry": { "type": "Point", "coordinates": [ -76.799704864519015, 40.304518496372765 ] } },
{ "type": "Feature", "properties": { "id": 71.0, "osm_id": 158315436.0, "name": "Clearview Manor", "type": "hamlet", "z_order": 4.0, "population": null }, "geometry": { "type": "Point", "coordinates": [ -76.788026861741557, 40.275089466692492 ] } },
{ "type": "Feature", "properties": { "id": 72.0, "osm_id": 158315407.0, "name": "Flintlock Ridge", "type": "hamlet", "z_order": 4.0, "population": null }, "geometry": { "type": "Point", "coordinates": [ -76.961919836636042, 40.194534934786361 ] } },
{ "type": "Feature", "properties": { "id": 73.0, "osm_id": 158321690.0, "name": "Fairview Park", "type": "hamlet", "z_order": 4.0, "population": null }, "geometry": { "type": "Point", "coordinates": [ -76.84802770978078, 40.186480344931759 ] } },
{ "type": "Feature", "properties": { "id": 74.0, "osm_id": 158315515.0, "name": "Lawnford Acres", "type": "hamlet", "z_order": 4.0, "population": null }, "geometry": { "type": "Point", "coordinates": [ -76.793026918441655, 40.261756373314398 ] } },
{ "type": "Feature", "properties": { "id": 75.0, "osm_id": 158317084.0, "name": "Lawrence Park", "type": "hamlet", "z_order": 4.0, "population": null }, "geometry": { "type": "Point", "coordinates": [ -76.800804570215391, 40.345643885198456 ] } },
{ "type": "Feature", "properties": { "id": 76.0, "osm_id": 158329055.0, "name": "Sporting Hill", "type": "hamlet", "z_order": 4.0, "population": null }, "geometry": { "type": "Point", "coordinates": [ -76.971919866217206, 40.236200537271571 ] } },
{ "type": "Feature", "properties": { "id": 77.0, "osm_id": 158332644.0, "name": "Twin Lakes Park", "type": "hamlet", "z_order": 4.0, "population": null }, "geometry": { "type": "Point", "coordinates": [ -76.801916010576193, 40.277589369314001 ] } },
{ "type": "Feature", "properties": { "id": 78.0, "osm_id": 158333084.0, "name": "Windsor Farms", "type": "hamlet", "z_order": 4.0, "population": null }, "geometry": { "type": "Point", "coordinates": [ -76.875528817912112, 40.322588287053264 ] } },
{ "type": "Feature", "properties": { "id": 79.0, "osm_id": 158333344.0, "name": "Peace Church", "type": "hamlet", "z_order": 4.0, "population": null }, "geometry": { "type": "Point", "coordinates": [ -76.955114066535259, 40.231964071950586 ] } },
{ "type": "Feature", "properties": { "id": 80.0, "osm_id": 158344023.0, "name": "Cove", "type": "hamlet", "z_order": 4.0, "population": null }, "geometry": { "type": "Point", "coordinates": [ -76.977746127113107, 40.354540856321989 ] } },
{ "type": "Feature", "properties": { "id": 81.0, "osm_id": 158344166.0, "name": "Camp Hill", "type": "village", "z_order": 5.0, "population": 7414.0 }, "geometry": { "type": "Point", "coordinates": [ -76.919974278584831, 40.23981179643485 ] } },
{ "type": "Feature", "properties": { "id": 82.0, "osm_id": 158345672.0, "name": "Winding Hill", "type": "hamlet", "z_order": 4.0, "population": null }, "geometry": { "type": "Point", "coordinates": [ -76.985809434146987, 40.187590695645156 ] } },
{ "type": "Feature", "properties": { "id": 83.0, "osm_id": 158346198.0, "name": "Susquehanna Manor", "type": "hamlet", "z_order": 4.0, "population": null }, "geometry": { "type": "Point", "coordinates": [ -76.848028128875939, 40.294255526489053 ] } },
{ "type": "Feature", "properties": { "id": 84.0, "osm_id": 158346223.0, "name": "Sangree", "type": "hamlet", "z_order": 4.0, "population": null }, "geometry": { "type": "Point", "coordinates": [ -76.800804402577327, 40.35508802696117 ] } },
{ "type": "Feature", "properties": { "id": 85.0, "osm_id": 158354247.0, "name": "Rutherford", "type": "hamlet", "z_order": 4.0, "population": null }, "geometry": { "type": "Point", "coordinates": [ -76.76802638348407, 40.268978556364829 ] } },
{ "type": "Feature", "properties": { "id": 86.0, "osm_id": 158360545.0, "name": "Haven Croft", "type": "hamlet", "z_order": 4.0, "population": null }, "geometry": { "type": "Point", "coordinates": [ -76.839694673102755, 40.318421726804758 ] } },
{ "type": "Feature", "properties": { "id": 87.0, "osm_id": 158355772.0, "name": "Oberlin", "type": "hamlet", "z_order": 4.0, "population": null }, "geometry": { "type": "Point", "coordinates": [ -76.814661448722802, 40.241101519876167 ] } },
{ "type": "Feature", "properties": { "id": 88.0, "osm_id": 158362568.0, "name": "Pleasant View", "type": "hamlet", "z_order": 4.0, "population": null }, "geometry": { "type": "Point", "coordinates": [ -76.731636937589485, 40.263423366217552 ] } },
{ "type": "Feature", "properties": { "id": 89.0, "osm_id": 158360696.0, "name": "Rutherford Gardens", "type": "hamlet", "z_order": 4.0, "population": null }, "geometry": { "type": "Point", "coordinates": [ -76.793773746014395, 40.26363249470171 ] } },
{ "type": "Feature", "properties": { "id": 90.0, "osm_id": 158367179.0, "name": "Bressler", "type": "neighbourhood", "z_order": 2.0, "population": null }, "geometry": { "type": "Point", "coordinates": [ -76.819971971116445, 40.22953474495381 ] } },
{ "type": "Feature", "properties": { "id": 91.0, "osm_id": 158365777.0, "name": "Perdix", "type": "hamlet", "z_order": 4.0, "population": null }, "geometry": { "type": "Point", "coordinates": [ -76.95803122029676, 40.355642741313176 ] } },
{ "type": "Feature", "properties": { "id": 92.0, "osm_id": 158369988.0, "name": "Slaseman Mobile Home Park", "type": "hamlet", "z_order": 4.0, "population": null }, "geometry": { "type": "Point", "coordinates": [ -76.842472268176408, 40.196480039236803 ] } },
{ "type": "Feature", "properties": { "id": 93.0, "osm_id": 158365747.0, "name": "Mount Allen", "type": "hamlet", "z_order": 4.0, "population": null }, "geometry": { "type": "Point", "coordinates": [ -76.973864719210553, 40.179257658967146 ] } },
{ "type": "Feature", "properties": { "id": 94.0, "osm_id": 158368026.0, "name": "Progress", "type": "hamlet", "z_order": 4.0, "population": null }, "geometry": { "type": "Point", "coordinates": [ -76.831361133510555, 40.285089077178498 ] } },
{ "type": "Feature", "properties": { "id": 95.0, "osm_id": 158380265.0, "name": "Paxtang", "type": "village", "z_order": 5.0, "population": 1491.0 }, "geometry": { "type": "Point", "coordinates": [ -76.83191676987191, 40.258978442964633 ] } },
{ "type": "Feature", "properties": { "id": 96.0, "osm_id": 158382823.0, "name": "West Creek Hills", "type": "hamlet", "z_order": 4.0, "population": null }, "geometry": { "type": "Point", "coordinates": [ -76.923029901386727, 40.265089018016198 ] } },
{ "type": "Feature", "properties": { "id": 97.0, "osm_id": 158385233.0, "name": "Fox Chase", "type": "hamlet", "z_order": 4.0, "population": null }, "geometry": { "type": "Point", "coordinates": [ -76.820527356020733, 40.333977281809318 ] } },
{ "type": "Feature", "properties": { "id": 98.0, "osm_id": 158382959.0, "name": "Locust Lane Gardens", "type": "hamlet", "z_order": 4.0, "population": null }, "geometry": { "type": "Point", "coordinates": [ -76.786360036476466, 40.296200295663368 ] } },
{ "type": "Feature", "properties": { "id": 99.0, "osm_id": 158390661.0, "name": "Allendale", "type": "hamlet", "z_order": 4.0, "population": null }, "geometry": { "type": "Point", "coordinates": [ -76.890251379379293, 40.223979051892343 ] } },
{ "type": "Feature", "properties": { "id": 100.0, "osm_id": 158392371.0, "name": "Royalton", "type": "village", "z_order": 5.0, "population": 931.0 }, "geometry": { "type": "Point", "coordinates": [ -76.729969357953109, 40.187314344297533 ] } },
{ "type": "Feature", "properties": { "id": 101.0, "osm_id": 158385255.0, "name": "Montrose Park", "type": "hamlet", "z_order": 4.0, "population": null }, "geometry": { "type": "Point", "coordinates": [ -76.899696107875201, 40.302310619257838 ] } },
{ "type": "Feature", "properties": { "id": 102.0, "osm_id": 158392636.0, "name": "Linglestown", "type": "hamlet", "z_order": 4.0, "population": null }, "geometry": { "type": "Point", "coordinates": [ -76.789157329022572, 40.334135029227042 ] } },
{ "type": "Feature", "properties": { "id": 103.0, "osm_id": 158392785.0, "name": "Howell", "type": "hamlet", "z_order": 4.0, "population": null }, "geometry": { "type": "Point", "coordinates": [ -76.967197669607316, 40.222589835260351 ] } },
{ "type": "Feature", "properties": { "id": 104.0, "osm_id": 158398081.0, "name": "Eubuna Gardens", "type": "hamlet", "z_order": 4.0, "population": null }, "geometry": { "type": "Point", "coordinates": [ -76.783026218308237, 40.344255087661651 ] } },
{ "type": "Feature", "properties": { "id": 105.0, "osm_id": 158404943.0, "name": "Country Estates", "type": "hamlet", "z_order": 4.0, "population": null }, "geometry": { "type": "Point", "coordinates": [ -77.01803257125016, 40.184257128934007 ] } },
{ "type": "Feature", "properties": { "id": 106.0, "osm_id": 158404766.0, "name": "Roxbury", "type": "hamlet", "z_order": 4.0, "population": null }, "geometry": { "type": "Point", "coordinates": [ -77.050255540715256, 40.200645258380803 ] } },
{ "type": "Feature", "properties": { "id": 107.0, "osm_id": 158414488.0, "name": "Good Hope Mill", "type": "hamlet", "z_order": 4.0, "population": null }, "geometry": { "type": "Point", "coordinates": [ -76.979420076995893, 40.26647764791494 ] } },
{ "type": "Feature", "properties": { "id": 108.0, "osm_id": 158408130.0, "name": "Valley Stream Estates", "type": "hamlet", "z_order": 4.0, "population": null }, "geometry": { "type": "Point", "coordinates": [ -77.029699342277382, 40.210089651600612 ] } },
{ "type": "Feature", "properties": { "id": 109.0, "osm_id": 158429099.0, "name": "New Market", "type": "hamlet", "z_order": 4.0, "population": null }, "geometry": { "type": "Point", "coordinates": [ -76.852194856762523, 40.223145974535925 ] } },
{ "type": "Feature", "properties": { "id": 110.0, "osm_id": 158423362.0, "name": "Ridgeland", "type": "hamlet", "z_order": 4.0, "population": null }, "geometry": { "type": "Point", "coordinates": [ -76.966364256974771, 40.263977745293431 ] } },
{ "type": "Feature", "properties": { "id": 111.0, "osm_id": 158442978.0, "name": "Meadowbrook Mobile Home Park", "type": "hamlet", "z_order": 4.0, "population": null }, "geometry": { "type": "Point", "coordinates": [ -76.901544736620124, 40.195794148100106 ] } },
{ "type": "Feature", "properties": { "id": 112.0, "osm_id": 158424612.0, "name": "Pennwood", "type": "hamlet", "z_order": 4.0, "population": null }, "geometry": { "type": "Point", "coordinates": [ -76.799693632768765, 40.295922351754143 ] } },
{ "type": "Feature", "properties": { "id": 113.0, "osm_id": 158445112.0, "name": "Colonial Wood", "type": "hamlet", "z_order": 4.0, "population": null }, "geometry": { "type": "Point", "coordinates": [ -76.829694475883542, 40.299255583189158 ] } },
{ "type": "Feature", "properties": { "id": 114.0, "osm_id": 158431804.0, "name": "Woodridge Estates", "type": "hamlet", "z_order": 4.0, "population": null }, "geometry": { "type": "Point", "coordinates": [ -76.861361808987269, 40.320643936974108 ] } },
{ "type": "Feature", "properties": { "id": 115.0, "osm_id": 158449545.0, "name": "Penbrook", "type": "village", "z_order": 5.0, "population": 2909.0 }, "geometry": { "type": "Point", "coordinates": [ -76.848028212694956, 40.275366991506587 ] } },
{ "type": "Feature", "properties": { "id": 116.0, "osm_id": 158452052.0, "name": "Orchard Crest", "type": "hamlet", "z_order": 4.0, "population": null }, "geometry": { "type": "Point", "coordinates": [ -76.986087042780113, 40.214256630944277 ] } },
{ "type": "Feature", "properties": { "id": 117.0, "osm_id": 158461304.0, "name": "Beaver Brook Manor", "type": "hamlet", "z_order": 4.0, "population": null }, "geometry": { "type": "Point", "coordinates": [ -76.789693351730506, 40.313422173018836 ] } },
{ "type": "Feature", "properties": { "id": 118.0, "osm_id": 158459644.0, "name": "Keystone", "type": "hamlet", "z_order": 4.0, "population": null }, "geometry": { "type": "Point", "coordinates": [ -77.054978240239336, 40.326198037473965 ] } },
{ "type": "Feature", "properties": { "id": 119.0, "osm_id": 158466044.0, "name": "Paxton Hollow Estates", "type": "hamlet", "z_order": 4.0, "population": null }, "geometry": { "type": "Point", "coordinates": [ -76.805249325830218, 40.30008899582171 ] } },
{ "type": "Feature", "properties": { "id": 120.0, "osm_id": 158462885.0, "name": "Chestnut Hill", "type": "neighbourhood", "z_order": 2.0, "population": null }, "geometry": { "type": "Point", "coordinates": [ -76.783162172777708, 40.250885799269639 ] } },
{ "type": "Feature", "properties": { "id": 121.0, "osm_id": 158482604.0, "name": "Heckton", "type": "hamlet", "z_order": 4.0, "population": null }, "geometry": { "type": "Point", "coordinates": [ -76.912944208755121, 40.348882987860833 ] } },
{ "type": "Feature", "properties": { "id": 122.0, "osm_id": 158466152.0, "name": "Blue Ridge Manor", "type": "hamlet", "z_order": 4.0, "population": null }, "geometry": { "type": "Point", "coordinates": [ -76.786359868838403, 40.33175523927801 ] } },
{ "type": "Feature", "properties": { "id": 123.0, "osm_id": 158474029.0, "name": "Paxtonia", "type": "hamlet", "z_order": 4.0, "population": null }, "geometry": { "type": "Point", "coordinates": [ -76.794415632159442, 40.317310956996181 ] } },
{ "type": "Feature", "properties": { "id": 124.0, "osm_id": 158482782.0, "name": "Lawnton", "type": "hamlet", "z_order": 4.0, "population": null }, "geometry": { "type": "Point", "coordinates": [ -76.803860612112445, 40.258422974241313 ] } },
{ "type": "Feature", "properties": { "id": 125.0, "osm_id": 158482475.0, "name": "Brandywine Manor", "type": "hamlet", "z_order": 4.0, "population": null }, "geometry": { "type": "Point", "coordinates": [ -76.836916658933959, 40.338977087052307 ] } },
{ "type": "Feature", "properties": { "id": 126.0, "osm_id": 158487012.0, "name": "Mountain Dale", "type": "hamlet", "z_order": 4.0, "population": null }, "geometry": { "type": "Point", "coordinates": [ -76.879695629617729, 40.336754625425861 ] } },
{ "type": "Feature", "properties": { "id": 127.0, "osm_id": 158487701.0, "name": "Highspire", "type": "town", "z_order": 6.0, "population": 2601.0 }, "geometry": { "type": "Point", "coordinates": [ -76.79024530005448, 40.211113249616147 ] } },
{ "type": "Feature", "properties": { "id": 128.0, "osm_id": 158486979.0, "name": "Bunches", "type": "hamlet", "z_order": 4.0, "population": null }, "geometry": { "type": "Point", "coordinates": [ -76.878584273075944, 40.181480288231654 ] } },
{ "type": "Feature", "properties": { "id": 129.0, "osm_id": 158483676.0, "name": "Enola", "type": "hamlet", "z_order": 4.0, "population": null }, "geometry": { "type": "Point", "coordinates": [ -76.933863678876563, 40.290088463326356 ] } },
{ "type": "Feature", "properties": { "id": 130.0, "osm_id": 158496277.0, "name": "Sparton Marshfield", "type": "hamlet", "z_order": 4.0, "population": null }, "geometry": { "type": "Point", "coordinates": [ -76.842194743362327, 40.287589063619038 ] } },
{ "type": "Feature", "properties": { "id": 131.0, "osm_id": 158506444.0, "name": "Hogestown", "type": "hamlet", "z_order": 4.0, "population": null }, "geometry": { "type": "Point", "coordinates": [ -77.032754713622197, 40.245922036210281 ] } },
{ "type": "Feature", "properties": { "id": 132.0, "osm_id": 158516298.0, "name": "Marsh Run", "type": "hamlet", "z_order": 4.0, "population": null }, "geometry": { "type": "Point", "coordinates": [ -76.813582530146306, 40.200091298400082 ] } },
{ "type": "Feature", "properties": { "id": 133.0, "osm_id": 158524785.0, "name": "Locust Ridge Manor", "type": "hamlet", "z_order": 4.0, "population": null }, "geometry": { "type": "Point", "coordinates": [ -76.826361076810457, 40.288977944974903 ] } },
{ "type": "Feature", "properties": { "id": 134.0, "osm_id": 158516744.0, "name": "Bonneymeade Farm", "type": "hamlet", "z_order": 4.0, "population": null }, "geometry": { "type": "Point", "coordinates": [ -76.820249831206652, 40.264256275935907 ] } },
{ "type": "Feature", "properties": { "id": 135.0, "osm_id": 158498638.0, "name": "New Cumberland", "type": "village", "z_order": 5.0, "population": 7115.0 }, "geometry": { "type": "Point", "coordinates": [ -76.884695602498795, 40.232312172389385 ] } },
{ "type": "Feature", "properties": { "id": 136.0, "osm_id": 158537645.0, "name": "Colonial Woods", "type": "hamlet", "z_order": 4.0, "population": null }, "geometry": { "type": "Point", "coordinates": [ -76.829601772034437, 40.184889627347502 ] } },
{ "type": "Feature", "properties": { "id": 137.0, "osm_id": 158531078.0, "name": "Hillside Village", "type": "hamlet", "z_order": 4.0, "population": null }, "geometry": { "type": "Point", "coordinates": [ -76.878028971990702, 40.2792556916649 ] } },
{ "type": "Feature", "properties": { "id": 138.0, "osm_id": 158526714.0, "name": "Steelton", "type": "village", "z_order": 5.0, "population": 5609.0 }, "geometry": { "type": "Point", "coordinates": [ -76.841361330729782, 40.235367879010312 ] } },
{ "type": "Feature", "properties": { "id": 139.0, "osm_id": 158546685.0, "name": "Oakleigh", "type": "neighbourhood", "z_order": 2.0, "population": null }, "geometry": { "type": "Point", "coordinates": [ -76.820527607477828, 40.258145281789176 ] } },
{ "type": "Feature", "properties": { "id": 140.0, "osm_id": 158543550.0, "name": "Skyline View", "type": "hamlet", "z_order": 4.0, "population": null }, "geometry": { "type": "Point", "coordinates": [ -76.725525021433413, 40.339255533875729 ] } },
{ "type": "Feature", "properties": { "id": 141.0, "osm_id": 158541791.0, "name": "Rutherford Heights", "type": "hamlet", "z_order": 4.0, "population": null }, "geometry": { "type": "Point", "coordinates": [ -76.7730265240032, 40.267311898737795 ] } },
{ "type": "Feature", "properties": { "id": 142.0, "osm_id": 158561770.0, "name": "Trindle Springs", "type": "hamlet", "z_order": 4.0, "population": null }, "geometry": { "type": "Point", "coordinates": [ -77.023310320402402, 40.206478727713453 ] } },
{ "type": "Feature", "properties": { "id": 143.0, "osm_id": 158549733.0, "name": "Good Hope", "type": "hamlet", "z_order": 4.0, "population": null }, "geometry": { "type": "Point", "coordinates": [ -76.984975853876392, 40.26925532680761 ] } },
{ "type": "Feature", "properties": { "id": 144.0, "osm_id": 158551887.0, "name": "Raven Hill", "type": "hamlet", "z_order": 4.0, "population": null }, "geometry": { "type": "Point", "coordinates": [ -76.930807972255622, 40.182591058040231 ] } },
{ "type": "Feature", "properties": { "id": 145.0, "osm_id": 158556330.0, "name": "Locust Point", "type": "hamlet", "z_order": 4.0, "population": null }, "geometry": { "type": "Point", "coordinates": [ -77.063867080916793, 40.197311859307746 ] } },
{ "type": "Feature", "properties": { "id": 146.0, "osm_id": 158565678.0, "name": "Hoernerstown", "type": "hamlet", "z_order": 4.0, "population": null }, "geometry": { "type": "Point", "coordinates": [ -76.724414335443896, 40.28731195790013 ] } },
{ "type": "Feature", "properties": { "id": 147.0, "osm_id": 158566924.0, "name": "South Devonshire Estates", "type": "hamlet", "z_order": 4.0, "population": null }, "geometry": { "type": "Point", "coordinates": [ -76.781359812138305, 40.30175573726774 ] } },
{ "type": "Feature", "properties": { "id": 148.0, "osm_id": 158570551.0, "name": "Crestview Manor", "type": "hamlet", "z_order": 4.0, "population": null }, "geometry": { "type": "Point", "coordinates": [ -76.744692506153498, 40.275089718149587 ] } },
{ "type": "Feature", "properties": { "id": 149.0, "osm_id": 158566921.0, "name": "Spring Run Acres", "type": "hamlet", "z_order": 4.0, "population": null }, "geometry": { "type": "Point", "coordinates": [ -76.983031671435299, 40.180090820142588 ] } },
{ "type": "Feature", "properties": { "id": 150.0, "osm_id": 158574669.0, "name": "Oberlin Gardens", "type": "hamlet", "z_order": 4.0, "population": null }, "geometry": { "type": "Point", "coordinates": [ -76.822472125195048, 40.243701083326378 ] } },
{ "type": "Feature", "properties": { "id": 151.0, "osm_id": 158576975.0, "name": "Beaufort Farms", "type": "hamlet", "z_order": 4.0, "population": null }, "geometry": { "type": "Point", "coordinates": [ -76.884973546408006, 40.324254860861259 ] } },
{ "type": "Feature", "properties": { "id": 152.0, "osm_id": 158573482.0, "name": "Hillymeade", "type": "hamlet", "z_order": 4.0, "population": null }, "geometry": { "type": "Point", "coordinates": [ -76.739692281815351, 40.304255975165376 ] } },
{ "type": "Feature", "properties": { "id": 153.0, "osm_id": 158574778.0, "name": "Fort Couch", "type": "hamlet", "z_order": 4.0, "population": null }, "geometry": { "type": "Point", "coordinates": [ -76.904418304485105, 40.246200566852735 ] } },
{ "type": "Feature", "properties": { "id": 154.0, "osm_id": 158580061.0, "name": "Rustic Hills", "type": "hamlet", "z_order": 4.0, "population": null }, "geometry": { "type": "Point", "coordinates": [ -76.813027229061063, 40.318421978261853 ] } },
{ "type": "Feature", "properties": { "id": 155.0, "osm_id": 158581315.0, "name": "North Skyline View", "type": "hamlet", "z_order": 4.0, "population": null }, "geometry": { "type": "Point", "coordinates": [ -76.723858363806386, 40.343422177943296 ] } },
{ "type": "Feature", "properties": { "id": 156.0, "osm_id": 158582271.0, "name": "Lawton Gardens", "type": "hamlet", "z_order": 4.0, "population": null }, "geometry": { "type": "Point", "coordinates": [ -76.804693940925958, 40.268422836184413 ] } },
{ "type": "Feature", "properties": { "id": 157.0, "osm_id": 158584302.0, "name": "Paxton Acres", "type": "hamlet", "z_order": 4.0, "population": null }, "geometry": { "type": "Point", "coordinates": [ -76.791082233086357, 40.312866620476512 ] } },
{ "type": "Feature", "properties": { "id": 158.0, "osm_id": 158586447.0, "name": "Kingwood", "type": "hamlet", "z_order": 4.0, "population": null }, "geometry": { "type": "Point", "coordinates": [ -76.955252954670854, 40.262588863937594 ] } },
{ "type": "Feature", "properties": { "id": 159.0, "osm_id": 158586281.0, "name": "Edgemont", "type": "hamlet", "z_order": 4.0, "population": null }, "geometry": { "type": "Point", "coordinates": [ -76.849417177869853, 40.285366853449688 ] } },
{ "type": "Feature", "properties": { "id": 160.0, "osm_id": 158594939.0, "name": "Westwood Village", "type": "hamlet", "z_order": 4.0, "population": null }, "geometry": { "type": "Point", "coordinates": [ -76.946364030174379, 40.305921459325951 ] } },
{ "type": "Feature", "properties": { "id": 161.0, "osm_id": 158592088.0, "name": "Devonshire Hills", "type": "hamlet", "z_order": 4.0, "population": null }, "geometry": { "type": "Point", "coordinates": [ -76.791360176995582, 40.305088968702762 ] } },
{ "type": "Feature", "properties": { "id": 162.0, "osm_id": 158594958.0, "name": "Colonial Park Farms", "type": "hamlet", "z_order": 4.0, "population": null }, "geometry": { "type": "Point", "coordinates": [ -76.813027312880095, 40.29008913387861 ] } },
{ "type": "Feature", "properties": { "id": 163.0, "osm_id": 158589516.0, "name": "English Manor", "type": "neighbourhood", "z_order": 2.0, "population": null }, "geometry": { "type": "Point", "coordinates": [ -76.772193279008704, 40.256200931710026 ] } },
{ "type": "Feature", "properties": { "id": 164.0, "osm_id": 158592577.0, "name": "Twin Lakes", "type": "hamlet", "z_order": 4.0, "population": null }, "geometry": { "type": "Point", "coordinates": [ -76.811160663043339, 40.275770161049216 ] } },
{ "type": "Feature", "properties": { "id": 165.0, "osm_id": 158601749.0, "name": "Mount View", "type": "hamlet", "z_order": 4.0, "population": null }, "geometry": { "type": "Point", "coordinates": [ -76.966364340793803, 40.280088517564224 ] } },
{ "type": "Feature", "properties": { "id": 166.0, "osm_id": 158598828.0, "name": "Winding Heights", "type": "hamlet", "z_order": 4.0, "population": null }, "geometry": { "type": "Point", "coordinates": [ -76.972197977764495, 40.192312724616983 ] } },
{ "type": "Feature", "properties": { "id": 167.0, "osm_id": 158607163.0, "name": "Glenwood", "type": "hamlet", "z_order": 4.0, "population": null }, "geometry": { "type": "Point", "coordinates": [ -76.846083862615799, 40.29092229505406 ] } },
{ "type": "Feature", "properties": { "id": 168.0, "osm_id": 158596788.0, "name": "Hodges Heights", "type": "hamlet", "z_order": 4.0, "population": null }, "geometry": { "type": "Point", "coordinates": [ -76.763026159145909, 40.280645159753959 ] } },
{ "type": "Feature", "properties": { "id": 169.0, "osm_id": 158608606.0, "name": "Wertzville", "type": "hamlet", "z_order": 4.0, "population": null }, "geometry": { "type": "Point", "coordinates": [ -77.043866435021243, 40.283698938537185 ] } },
{ "type": "Feature", "properties": { "id": 170.0, "osm_id": 158614293.0, "name": "Reservoir Hill", "type": "hamlet", "z_order": 4.0, "population": null }, "geometry": { "type": "Point", "coordinates": [ -76.974698048024067, 40.185090793023647 ] } },
{ "type": "Feature", "properties": { "id": 171.0, "osm_id": 158609014.0, "name": "Coventry Close", "type": "hamlet", "z_order": 4.0, "population": null }, "geometry": { "type": "Point", "coordinates": [ -76.926363468097861, 40.270088823259186 ] } },
{ "type": "Feature", "properties": { "id": 172.0, "osm_id": 158615255.0, "name": "Washington Heights", "type": "hamlet", "z_order": 4.0, "population": null }, "geometry": { "type": "Point", "coordinates": [ -76.896084848711908, 40.247033895666249 ] } },
{ "type": "Feature", "properties": { "id": 173.0, "osm_id": 158616481.0, "name": "Kimberly Meadows", "type": "hamlet", "z_order": 4.0, "population": null }, "geometry": { "type": "Point", "coordinates": [ -76.974698048024067, 40.18842394063963 ] } },
{ "type": "Feature", "properties": { "id": 174.0, "osm_id": 158619271.0, "name": "Middletown", "type": "town", "z_order": 6.0, "population": 8858.0 }, "geometry": { "type": "Point", "coordinates": [ -76.731090353683541, 40.199795417218041 ] } },
{ "type": "Feature", "properties": { "id": 175.0, "osm_id": 158621411.0, "name": "Catalina", "type": "hamlet", "z_order": 4.0, "population": null }, "geometry": { "type": "Point", "coordinates": [ -76.819694111026251, 40.289255721246057 ] } },
{ "type": "Feature", "properties": { "id": 176.0, "osm_id": 158623513.0, "name": "Fox Ridge Court", "type": "neighbourhood", "z_order": 2.0, "population": null }, "geometry": { "type": "Point", "coordinates": [ -76.887481411837541, 40.269025327384526 ] } },
{ "type": "Feature", "properties": { "id": 177.0, "osm_id": 158623515.0, "name": "Kent Gardens", "type": "hamlet", "z_order": 4.0, "population": null }, "geometry": { "type": "Point", "coordinates": [ -76.7891378830072, 40.291755875324668 ] } },
{ "type": "Feature", "properties": { "id": 178.0, "osm_id": 158629795.0, "name": "Ridge Acres", "type": "hamlet", "z_order": 4.0, "population": null }, "geometry": { "type": "Point", "coordinates": [ -76.832194378505037, 40.336754876882964 ] } },
{ "type": "Feature", "properties": { "id": 179.0, "osm_id": 158626488.0, "name": "Colonial Woods South", "type": "hamlet", "z_order": 4.0, "population": null }, "geometry": { "type": "Point", "coordinates": [ -76.83112493147911, 40.181283145869031 ] } },
{ "type": "Feature", "properties": { "id": 180.0, "osm_id": 158629874.0, "name": "Marene Village", "type": "hamlet", "z_order": 4.0, "population": null }, "geometry": { "type": "Point", "coordinates": [ -76.7891378830072, 40.29675584820572 ] } },
{ "type": "Feature", "properties": { "id": 181.0, "osm_id": 158630832.0, "name": "Reesers Summit", "type": "hamlet", "z_order": 4.0, "population": null }, "geometry": { "type": "Point", "coordinates": [ -76.86552836923579, 40.20120206820863 ] } },
{ "type": "Feature", "properties": { "id": 182.0, "osm_id": 158631504.0, "name": "Oakwood Park", "type": "hamlet", "z_order": 4.0, "population": null }, "geometry": { "type": "Point", "coordinates": [ -76.958864046196069, 40.2406449576103 ] } },
{ "type": "Feature", "properties": { "id": 183.0, "osm_id": 158632637.0, "name": "Swatara", "type": "suburb", "z_order": 3.0, "population": 22320.0 }, "geometry": { "type": "Point", "coordinates": [ -76.79674504687037, 40.243459852153052 ] } },
{ "type": "Feature", "properties": { "id": 184.0, "osm_id": 158636409.0, "name": "Houck Manor", "type": "hamlet", "z_order": 4.0, "population": null }, "geometry": { "type": "Point", "coordinates": [ -76.758025431893557, 40.355088278418258 ] } },
{ "type": "Feature", "properties": { "id": 185.0, "osm_id": 158638209.0, "name": "Greenwood Hills", "type": "neighbourhood", "z_order": 2.0, "population": null }, "geometry": { "type": "Point", "coordinates": [ -76.763683467992777, 40.217985823485208 ] } },
{ "type": "Feature", "properties": { "id": 186.0, "osm_id": 158634193.0, "name": "High Ridge", "type": "hamlet", "z_order": 4.0, "population": null }, "geometry": { "type": "Point", "coordinates": [ -76.736359134199375, 40.273423144341621 ] } },
{ "type": "Feature", "properties": { "id": 187.0, "osm_id": 158636639.0, "name": "Green Lane Farms", "type": "hamlet", "z_order": 4.0, "population": null }, "geometry": { "type": "Point", "coordinates": [ -76.898029282610125, 40.222034534175123 ] } },
{ "type": "Feature", "properties": { "id": 188.0, "osm_id": 158639007.0, "name": "Holliday", "type": "hamlet", "z_order": 4.0, "population": null }, "geometry": { "type": "Point", "coordinates": [ -76.974142327843651, 40.193979466063041 ] } },
{ "type": "Feature", "properties": { "id": 189.0, "osm_id": 158648661.0, "name": "Devonshire Heights", "type": "hamlet", "z_order": 4.0, "population": null }, "geometry": { "type": "Point", "coordinates": [ -76.776359671619176, 40.312866788114576 ] } },
{ "type": "Feature", "properties": { "id": 190.0, "osm_id": 158649068.0, "name": "Old Colonial Village", "type": "hamlet", "z_order": 4.0, "population": null }, "geometry": { "type": "Point", "coordinates": [ -76.826360909172394, 40.320088552069819 ] } },
{ "type": "Feature", "properties": { "id": 191.0, "osm_id": 158646826.0, "name": "Eberlys Mill", "type": "hamlet", "z_order": 4.0, "population": null }, "geometry": { "type": "Point", "coordinates": [ -76.90552940956978, 40.225645625700338 ] } },
{ "type": "Feature", "properties": { "id": 192.0, "osm_id": 158649082.0, "name": "Hampden Village Mobile Home Park", "type": "hamlet", "z_order": 4.0, "population": null }, "geometry": { "type": "Point", "coordinates": [ -76.988031309040238, 40.256477785971839 ] } },
{ "type": "Feature", "properties": { "id": 193.0, "osm_id": 158653374.0, "name": "Lucknow", "type": "hamlet", "z_order": 4.0, "population": null }, "geometry": { "type": "Point", "coordinates": [ -76.886149443604239, 40.327557833625804 ] } },
{ "type": "Feature", "properties": { "id": 194.0, "osm_id": 158654332.0, "name": "Highland Park", "type": "hamlet", "z_order": 4.0, "population": null }, "geometry": { "type": "Point", "coordinates": [ -76.901362765502228, 40.231756536028001 ] } },
{ "type": "Feature", "properties": { "id": 195.0, "osm_id": 158654538.0, "name": "Rockville", "type": "hamlet", "z_order": 4.0, "population": null }, "geometry": { "type": "Point", "coordinates": [ -76.904696332213362, 40.336198821426414 ] } },
{ "type": "Feature", "properties": { "id": 196.0, "osm_id": 158655916.0, "name": "Devonshire Estates", "type": "hamlet", "z_order": 4.0, "population": null }, "geometry": { "type": "Point", "coordinates": [ -76.776604842286986, 40.303608976059422 ] } },
{ "type": "Feature", "properties": { "id": 197.0, "osm_id": 618272827.0, "name": "Grandview Acres", "type": "hamlet", "z_order": 4.0, "population": null }, "geometry": { "type": "Point", "coordinates": [ -76.949697261609387, 40.28175517519125 ] } },
{ "type": "Feature", "properties": { "id": 198.0, "osm_id": 750257558.0, "name": "Shope Gardens", "type": "neighbourhood", "z_order": 2.0, "population": null }, "geometry": { "type": "Point", "coordinates": [ -76.771541418398897, 40.217118045049659 ] } },
{ "type": "Feature", "properties": { "id": 199.0, "osm_id": 750257573.0, "name": "Woodridge", "type": "neighbourhood", "z_order": 2.0, "population": null }, "geometry": { "type": "Point", "coordinates": [ -76.764267351367849, 40.222639623765218 ] } },
{ "type": "Feature", "properties": { "id": 200.0, "osm_id": 1838181885.0, "name": "Villiage Housing", "type": "locality", "z_order": 1.0, "population": null }, "geometry": { "type": "Point", "coordinates": [ -76.739597231033372, 40.205963073030205 ] } },
{ "type": "Feature", "properties": { "id": 201.0, "osm_id": 1976504722.0, "name": "Estherton", "type": "hamlet", "z_order": 4.0, "population": null }, "geometry": { "type": "Point", "coordinates": [ -76.896507045174772, 40.314482148494164 ] } },
{ "type": "Feature", "properties": { "id": 202.0, "osm_id": 1975850590.0, "name": "Lottsville", "type": "neighbourhood", "z_order": 2.0, "population": null }, "geometry": { "type": "Point", "coordinates": [ -76.887581324123346, 40.2740152419818 ] } },
{ "type": "Feature", "properties": { "id": 203.0, "osm_id": 2804014852.0, "name": "Nittany Villiage", "type": "locality", "z_order": 1.0, "population": null }, "geometry": { "type": "Point", "coordinates": [ -76.738978478941107, 40.197532051904091 ] } },
{ "type": "Feature", "properties": { "id": 204.0, "osm_id": 2804014853.0, "name": "Campus Heights", "type": "locality", "z_order": 1.0, "population": null }, "geometry": { "type": "Point", "coordinates": [ -76.737347612040622, 40.198269575564353 ] } },
{ "type": "Feature", "properties": { "id": 205.0, "osm_id": 2936134044.0, "name": "Peachtree Village", "type": "neighbourhood", "z_order": 2.0, "population": null }, "geometry": { "type": "Point", "coordinates": [ -77.019012080455028, 40.198311149804084 ] } },
{ "type": "Feature", "properties": { "id": 206.0, "osm_id": 2936139535.0, "name": "Sinclair Park", "type": "neighbourhood", "z_order": 2.0, "population": null }, "geometry": { "type": "Point", "coordinates": [ -77.022466681847988, 40.197999762101176 ] } },
{ "type": "Feature", "properties": { "id": 207.0, "osm_id": 3384637649.0, "name": "Shipoke", "type": "neighbourhood", "z_order": 2.0, "population": null }, "geometry": { "type": "Point", "coordinates": [ -76.87504610410835, 40.253960532810765 ] } },
{ "type": "Feature", "properties": { "id": 208.0, "osm_id": 3384638202.0, "name": "Fox Ridge", "type": "neighbourhood", "z_order": 2.0, "population": null }, "geometry": { "type": "Point", "coordinates": [ -76.885876445017871, 40.267885053276807 ] } },
{ "type": "Feature", "properties": { "id": 209.0, "osm_id": 3384652032.0, "name": "Book Row", "type": "neighbourhood", "z_order": 2.0, "population": null }, "geometry": { "type": "Point", "coordinates": [ -76.890166805976264, 40.272068796426822 ] } },
{ "type": "Feature", "properties": { "id": 210.0, "osm_id": 3384702757.0, "name": "Summit Terrace", "type": "neighbourhood", "z_order": 2.0, "population": null }, "geometry": { "type": "Point", "coordinates": [ -76.872326847080799, 40.267133867114381 ] } },
{ "type": "Feature", "properties": { "id": 211.0, "osm_id": 3384709235.0, "name": "Hardscrabble", "type": "neighbourhood", "z_order": 2.0, "population": null }, "geometry": { "type": "Point", "coordinates": [ -76.891229966574798, 40.26988363426949 ] } },
{ "type": "Feature", "properties": { "id": 212.0, "osm_id": 3384712227.0, "name": "Mount Pleasant", "type": "neighbourhood", "z_order": 2.0, "population": null }, "geometry": { "type": "Point", "coordinates": [ -76.866671660828658, 40.26251317535192 ] } },
{ "type": "Feature", "properties": { "id": 213.0, "osm_id": 3384709780.0, "name": "Engleton", "type": "neighbourhood", "z_order": 2.0, "population": null }, "geometry": { "type": "Point", "coordinates": [ -76.893536666328146, 40.273083928720176 ] } },
{ "type": "Feature", "properties": { "id": 214.0, "osm_id": 3384710101.0, "name": "Capitol Heights", "type": "neighbourhood", "z_order": 2.0, "population": null }, "geometry": { "type": "Point", "coordinates": [ -76.890296557837388, 40.275350562976371 ] } },
{ "type": "Feature", "properties": { "id": 215.0, "osm_id": 3384715704.0, "name": "Jackson Lick", "type": "neighbourhood", "z_order": 2.0, "population": null }, "geometry": { "type": "Point", "coordinates": [ -76.884922500617677, 40.271520033226068 ] } },
{ "type": "Feature", "properties": { "id": 216.0, "osm_id": 3384713579.0, "name": "Hall Manor", "type": "neighbourhood", "z_order": 2.0, "population": null }, "geometry": { "type": "Point", "coordinates": [ -76.857735630036345, 40.250086584802034 ] } },
{ "type": "Feature", "properties": { "id": 217.0, "osm_id": 3384715708.0, "name": "Old Uptown", "type": "neighbourhood", "z_order": 2.0, "population": null }, "geometry": { "type": "Point", "coordinates": [ -76.895864823753627, 40.277461964385765 ] } }
]
}
